[ { "fsq_place_id": "4bdfa5d56198c9b6e80e18ff", "latitude": 35.6902716242296, "longitude": 139.83905375003815, "categories": [ { "fsq_category_id": "4bf58dd8d48988d110941735", "name": "Italian Restaurant", "short_name": "Italian", "plural_name": "Italian Restaurants", "icon": { "prefix": "https://ss3.4sqi.net/img/categories_v2/food/italian_", "suffix": ".png" } }, { "fsq_category_id": "4bf58dd8d48988d16d941735", "name": "Café", "short_name": "Café", "plural_name": "Cafés", "icon": { "prefix": "https://ss3.4sqi.net/img/categories_v2/food/cafe_", "suffix": ".png" } } ], "date_created": "2010-05-04", "date_refreshed": "2024-12-14", "distance": 861, "extended_location": {}, "link": "/places/4bdfa5d56198c9b6e80e18ff", "location": { "address": "大島7-1-12", "locality": "江東区", "region": "東京都", "postcode": "136-0072", "country": "JP", "formatted_address": "大島7-1-12, 江東区, 東京都, 136-0072" }, "name": "Cafe Restaurant NAKAICHI", "placemaker_url": "https://foursquare.com/placemakers/review-place/4bdfa5d56198c9b6e80e18ff", "related_places": {}, "social_media": { "twitter": "" }, "tel": "03-3681-8733", "website": "http://www.nakaichi.com" }, { "fsq_place_id": "584b4f7f110d03227440530f", "latitude": 35.689533675893315, "longitude": 139.83038453842227, "categories": [ { "fsq_category_id": "4bf58dd8d48988d16d941735", "name": "Café", "short_name": "Café", "plural_name": "Cafés", "icon": { "prefix": "https://ss3.4sqi.net/img/categories_v2/food/cafe_", "suffix": ".png" } } ], "date_created": "2016-12-10", "date_refreshed": "2025-06-21", "distance": 297, "extended_location": {}, "link": "/places/584b4f7f110d03227440530f", "location": { "postcode": "", "country": "JP", "formatted_address": "" }, "name": "kn.cafe", "placemaker_url": "https://foursquare.com/placemakers/review-place/584b4f7f110d03227440530f", "related_places": {}, "social_media": { "instagram": "kn.cafe1210", "twitter": "" } }, { "fsq_place_id": "4d32b8d372a8b1f70947a1d0", "latitude": 35.688863511644016, "longitude": 139.81656468970513, "categories": [ { "fsq_category_id": "4bf58dd8d48988d16d941735", "name": "Café", "short_name": "Café", "plural_name": "Cafés", "icon": { "prefix": "https://ss3.4sqi.net/img/categories_v2/food/cafe_", "suffix": ".png" } }, { "fsq_category_id": "5f2c239eb6d05514c70441ee", "name": "Teishoku Restaurant", "short_name": "Teishoku", "plural_name": "Teishoku Restaurants", "icon": { "prefix": "https://ss3.4sqi.net/img/categories_v2/food/japanese_", "suffix": ".png" } } ], "date_created": "2011-01-16", "date_refreshed": "2024-12-21", "distance": 1276, "extended_location": {}, "link": "/places/4d32b8d372a8b1f70947a1d0", "location": { "address": "住吉2-27-10", "locality": "江東区", "region": "東京都", "postcode": "135-0002", "country": "JP", "formatted_address": "住吉2-27-10 (新大橋通り), 江東区, 東京都, 135-0002" }, "name": "Red Wood Cafe (レッドウッドカフェ)", "placemaker_url": "https://foursquare.com/placemakers/review-place/4d32b8d372a8b1f70947a1d0", "related_places": {}, "social_media": {}, "tel": "03-5848-2018", "website": "https://mr-gekikara.owst.jp" }, { "fsq_place_id": "4b6c0b88f964a5201c212ce3", "latitude": 35.6969586, "longitude": 139.8285677, "categories": [ { "fsq_category_id": "4bf58dd8d48988d16d941735", "name": "Café", "short_name": "Café", "plural_name": "Cafés", "icon": { "prefix": "https://ss3.4sqi.net/img/categories_v2/food/cafe_", "suffix": ".png" } }, { "fsq_category_id": "4bf58dd8d48988d11e941735", "name": "Cocktail Bar", "short_name": "Cocktail", "plural_name": "Cocktail Bars", "icon": { "prefix": "https://ss3.4sqi.net/img/categories_v2/nightlife/cocktails_", "suffix": ".png" } } ], "date_created": "2010-02-05", "date_refreshed": "2025-08-16", "distance": 1136, "extended_location": {}, "link": "/places/4b6c0b88f964a5201c212ce3", "location": { "address": "亀戸6-57-22", "locality": "東京", "region": "東京都", "postcode": "136-0071", "country": "JP", "formatted_address": "亀戸6-57-22 (サンポービル 2F), 江東区, 東京都, 136-0071" }, "name": "Samurai (珈琲道場 侍)", "placemaker_url": "https://foursquare.com/placemakers/review-place/4b6c0b88f964a5201c212ce3", "related_places": {}, "social_media": { "twitter": "gpz900rninnjya" }, "tel": "03-3638-4003", "website": "http://www.samurai-cafe.jp" }, { "fsq_place_id": "567a3066498ea5d573d37c31", "latitude": 35.680797031083046, "longitude": 139.83236684473096, "categories": [ { "fsq_category_id": "4bf58dd8d48988d16d941735", "name": "Café", "short_name": "Café", "plural_name": "Cafés", "icon": { "prefix": "https://ss3.4sqi.net/img/categories_v2/food/cafe_", "suffix": ".png" } } ], "date_created": "2015-12-23", "date_refreshed": "2025-08-03", "distance": 694, "extended_location": {}, "link": "/places/567a3066498ea5d573d37c31", "location": { "address": "北砂4-24-10", "locality": "江東区", "region": "東京都", "postcode": "", "country": "JP", "formatted_address": "北砂4-24-10, 江東区, 東京都" }, "name": "café and lunch いどばた", "placemaker_url": "https://foursquare.com/placemakers/review-place/567a3066498ea5d573d37c31", "related_places": {}, "social_media": { "twitter": "" } }, { "fsq_place_id": "50a7c726e0e273408aeab421", "latitude": 35.69248053533201, "longitude": 139.8219358921051, "categories": [ { "fsq_category_id": "4bf58dd8d48988d16d941735", "name": "Café", "short_name": "Café", "plural_name": "Cafés", "icon": { "prefix": "https://ss3.4sqi.net/img/categories_v2/food/cafe_", "suffix": ".png" } } ], "date_created": "2012-11-17", "date_refreshed": "2021-11-05", "distance": 993, "extended_location": {}, "link": "/places/50a7c726e0e273408aeab421", "location": { "address": "大島2-6-21", "locality": "江東区", "region": "東京都", "postcode": "136-0072", "country": "JP", "formatted_address": "大島2-6-21, 江東区, 東京都, 136-0072" }, "name": "café Artemis", "placemaker_url": "https://foursquare.com/placemakers/review-place/50a7c726e0e273408aeab421", "related_places": {}, "social_media": {}, "tel": "03-5628-5002" }, { "fsq_place_id": "63197a435653c2673bad2dfb", "latitude": 35.688818, "longitude": 139.819625, "categories": [ { "fsq_category_id": "4bf58dd8d48988d16d941735", "name": "Café", "short_name": "Café", "plural_name": "Cafés", "icon": { "prefix": "https://ss3.4sqi.net/img/categories_v2/food/cafe_", "suffix": ".png" } } ], "date_created": "2022-09-08", "date_refreshed": "2025-08-10", "distance": 1004, "extended_location": {}, "link": "/places/63197a435653c2673bad2dfb", "location": { "locality": "江東区", "region": "東京都", "postcode": "135-0002", "country": "JP", "formatted_address": "江東区, 東京都, 135-0002" }, "name": "Cafe Kichi", "placemaker_url": "https://foursquare.com/placemakers/review-place/63197a435653c2673bad2dfb", "related_places": {}, "social_media": { "twitter": "" } }, { "fsq_place_id": "50fa211de4b05cb56a312554", "latitude": 35.695261, "longitude": 139.825651, "categories": [ { "fsq_category_id": "4bf58dd8d48988d16d941735", "name": "Café", "short_name": "Café", "plural_name": "Cafés", "icon": { "prefix": "https://ss3.4sqi.net/img/categories_v2/food/cafe_", "suffix": ".png" } } ], "date_created": "2013-01-19", "date_refreshed": "2025-07-19", "distance": 1031, "extended_location": {}, "link": "/places/50fa211de4b05cb56a312554", "location": { "address": "亀戸1-32-7", "locality": "東京", "region": "東京都", "postcode": "136-0071", "country": "JP", "formatted_address": "亀戸1-32-7, 江東区, 東京都, 136-0071" }, "name": "Rose Cafe", "placemaker_url": "https://foursquare.com/placemakers/review-place/50fa211de4b05cb56a312554", "related_places": {}, "social_media": { "twitter": "" }, "tel": "03-3636-0101" }, { "fsq_place_id": "57ca87ea498e111d1bf000a4", "latitude": 35.698103, "longitude": 139.826509, "categories": [ { "fsq_category_id": "4bf58dd8d48988d16d941735", "name": "Café", "short_name": "Café", "plural_name": "Cafés", "icon": { "prefix": "https://ss3.4sqi.net/img/categories_v2/food/cafe_", "suffix": ".png" } }, { "fsq_category_id": "4bf58dd8d48988d1e0931735", "name": "Coffee Shop", "short_name": "Coffee Shop", "plural_name": "Coffee Shops", "icon": { "prefix": "https://ss3.4sqi.net/img/categories_v2/food/coffeeshop_", "suffix": ".png" } } ], "chains": [ { "fsq_chain_id": "59720f223ba7673c496f00e8" } ], "date_created": "2016-09-03", "date_refreshed": "2025-08-25", "distance": 1300, "extended_location": {}, "link": "/places/57ca87ea498e111d1bf000a4", "location": { "address": "亀戸5-1-1", "locality": "江東区", "region": "東京都", "postcode": "136-0071", "country": "JP", "formatted_address": "亀戸5-1-1 (アトレ亀戸 2F), 江東区, 東京都, 136-0071" }, "name": "Komeda's Coffee (コメダ珈琲店)", "placemaker_url": "https://foursquare.com/placemakers/review-place/57ca87ea498e111d1bf000a4", "related_places": { "parent": { "fsq_place_id": "4b555ac5f964a52051e227e3", "categories": [ { "fsq_category_id": "4bf58dd8d48988d1fd941735", "name": "Shopping Mall", "short_name": "Mall", "plural_name": "Shopping Malls", "icon": { "prefix": "https://ss3.4sqi.net/img/categories_v2/shops/mall_", "suffix": ".png" } } ], "name": "アトレ亀戸" } }, "social_media": { "facebook_id": "817928641556314", "instagram": "komeda_coffee_official", "twitter": "komedaofficial" }, "tel": "03-5875-5910", "website": "https://www.komeda.co.jp" }, { "fsq_place_id": "56b55d21498e5b273c3ed677", "latitude": 35.696188297271405, "longitude": 139.82674729067813, "categories": [ { "fsq_category_id": "4bf58dd8d48988d16d941735", "name": "Café", "short_name": "Café", "plural_name": "Cafés", "icon": { "prefix": "https://ss3.4sqi.net/img/categories_v2/food/cafe_", "suffix": ".png" } } ], "date_created": "2016-02-06", "date_refreshed": "2025-05-03", "distance": 1090, "extended_location": {}, "link": "/places/56b55d21498e5b273c3ed677", "location": { "address": "亀戸6-27-1", "locality": "東京", "region": "東京都", "postcode": "136-0071", "country": "JP", "formatted_address": "亀戸6-27-1 (アーバンシミズビル 1F), 江東区, 東京都, 136-0071" }, "name": "fleur cafe", "placemaker_url": "https://foursquare.com/placemakers/review-place/56b55d21498e5b273c3ed677", "related_places": {}, "social_media": { "twitter": "" }, "tel": "03-5875-1742", "website": "http://fleurcafe.owst.jp" } ]